{"sourcecol":"name,address,website,lat,lng","data":[{"website":"http://winnipeg.ca/cms/recreation/facilities/pools/wading_pools/wadingpools.stm","address":"640 Pepperloaf Cres","lng":"-97.288536569219","name":"Roblin Park Community Centre Wading Pool","lat":"49.8540763400261"},{"website":"http://winnipeg.ca/cms/recreation/facilities/pools/wading_pools/wadingpools.stm","address":"96 Sinclair St","lng":"-97.1604291447996","name":"Old Ex Park Wading Pool","lat":"49.9187553033644"},{"website":"http://winnipeg.ca/cms/recreation/facilities/pools/wading_pools/wadingpools.stm","address":"303 Lockwood St","lng":"-97.203749010377","name":"T R Hodgeson Park Wading Pool","lat":"49.8682880256275"},{"website":"http://winnipeg.ca/cms/recreation/facilities/pools/wading_pools/wadingpools.stm","address":"1188 Dakota St","lng":"-97.1017435167957","name":"Dakota Park Wading Pool","lat":"49.8187200772159"},{"website":"http://winnipeg.ca/cms/recreation/facilities/pools/wading_pools/wadingpools.stm","address":"282 Niverville Ave","lng":"-97.1142384320864","name":"Champlain Community Centre Wading Pool","lat":"49.8755170086163"},{"website":"http://winnipeg.ca/cms/recreation/facilities/pools/wading_pools/wadingpools.stm","address":"787 Brock St","lng":"-97.1900213985942","name":"William Osler Park Wading Pool","lat":"49.8542737926832"},{"website":"http://winnipeg.ca/cms/recreation/facilities/pools/wading_pools/wadingpools.stm","address":"416 Assiniboine Ave","lng":"-97.1419438513404","name":"McFadyen Park Wading Pool","lat":"49.8836656233804"},{"website":"http://winnipeg.ca/cms/recreation/facilities/pools/wading_pools/wadingpools.stm","address":"550 Dale Blvd","lng":"-97.3153553648372","name":"Westdale Wading Pool","lat":"49.8613385018961"},{"website":"http://winnipeg.ca/cms/recreation/facilities/pools/wading_pools/wadingpools.stm","address":"111 Lemmen Dr","lng":"-97.0601372395154","name":"Tomlinson Park Wading Pool","lat":"49.9194363743172"},{"website":"http://winnipeg.ca/cms/recreation/facilities/pools/wading_pools/wadingpools.stm","address":"761 Rosseau Ave W","lng":"-97.0247030508832","name":"Rotary Centenary Park Wading Pool","lat":"49.8987399754195"},{"website":"http://winnipeg.ca/cms/recreation/facilities/pools/wading_pools/wadingpools.stm","address":"245 Marjorie St","lng":"-97.2132299887099","name":"Marjorie Park Wading Pool","lat":"49.8808410025807"},{"website":"http://winnipeg.ca/cms/recreation/facilities/pools/wading_pools/wadingpools.stm","address":"760 Ross Ave","lng":"-97.158951052438","name":"Sister MacNamara Park Wading Pool","lat":"49.9068569856242"},{"website":"http://winnipeg.ca/cms/recreation/facilities/pools/wading_pools/wadingpools.stm","address":"40 Berkshire Bay","lng":"-97.0894989674522","name":"Berkshire Park Wading Pool","lat":"49.8723639655066"},{"website":"http://winnipeg.ca/cms/recreation/facilities/pools/wading_pools/wadingpools.stm","address":"3684 Ness Ave","lng":"-97.3134021253687","name":"St. Charles Park Wading Pool","lat":"49.8886777172915"},{"website":"http://winnipeg.ca/cms/recreation/facilities/pools/wading_pools/wadingpools.stm","address":"185 Young St","lng":"-97.155216173433","name":"Broadway Park Wading Pool","lat":"49.8838801415444"},{"website":"http://winnipeg.ca/cms/recreation/facilities/pools/wading_pools/wadingpools.stm","address":"430 Langside St","lng":"-97.1564184864932","name":"Magnus Eliason Recreation Centre Wading Pool","lat":"49.8916424576076"},{"website":"http://winnipeg.ca/cms/recreation/facilities/pools/wading_pools/wadingpools.stm","address":"90 Ashland Ave","lng":"-97.118578670654","name":"Riverview Community Centre Wading Pool","lat":"49.8650769614941"},{"website":"http://winnipeg.ca/cms/recreation/facilities/pools/wading_pools/wadingpools.stm","address":"709 Manhattan Ave","lng":"-97.0902020574638","name":"King Edward Park Wading Pool","lat":"49.9062175646793"},{"website":"http://winnipeg.ca/cms/recreation/facilities/pools/wading_pools/wadingpools.stm","address":"360 Cockburn St N","lng":"-97.1508468555284","name":"Earl Grey Community Centre Wading Pool","lat":"49.8668967998956"},{"website":"http://winnipeg.ca/cms/recreation/facilities/pools/wading_pools/wadingpools.stm","address":"821 Preston Ave","lng":"-97.1679547290053","name":"Vimy Ridge Memorial Park Wading Pool","lat":"49.8843665434473"},{"website":"http://winnipeg.ca/cms/recreation/facilities/pools/wading_pools/wadingpools.stm","address":"1000 Fleet Ave","lng":"-97.1620289875918","name":"Harrow Park Wading Pool","lat":"49.8637229876301"},{"website":"http://winnipeg.ca/cms/recreation/facilities/pools/wading_pools/wadingpools.stm","address":"380 Henderson Hwy","lng":"-97.1135481277432","name":"Elmwood Park Wading Pool","lat":"49.9181647921526"},{"website":"http://winnipeg.ca/cms/recreation/facilities/pools/wading_pools/wadingpools.stm","address":"254 Lakewood Blvd","lng":"-97.076612491441","name":"Southdale Community Centre Wading Pool","lat":"49.845435979309"},{"website":"http://winnipeg.ca/cms/recreation/facilities/pools/wading_pools/wadingpools.stm","address":"346 Perth Ave","lng":"-97.1257869561716","name":"West Kildonan Memorial Community Centre Wading Pool","lat":"49.9371455856228"},{"website":"http://winnipeg.ca/cms/recreation/facilities/pools/wading_pools/wadingpools.stm","address":"1 Sir John Franklin Rd","lng":"-97.196540302118","name":"Sir John Franklin Community Centre Wading Pool","lat":"49.8658658375023"},{"website":"http://winnipeg.ca/cms/recreation/facilities/pools/wading_pools/wadingpools.stm","address":"990 Beaverhill Blvd","lng":"-97.0656432844667","name":"Vermillion Park Wading Pool","lat":"49.8530036556402"},{"website":"http://winnipeg.ca/cms/recreation/facilities/pools/wading_pools/wadingpools.stm","address":"155 Jordan St","lng":"-97.1831953359144","name":"Pascoe Park Wading Pool","lat":"49.9147125781316"},{"website":"http://winnipeg.ca/cms/recreation/facilities/pools/wading_pools/wadingpools.stm","address":"415 Stella Ave","lng":"-97.1444631958992","name":"Aberdeen Recreation Centre Wading Pool","lat":"49.913582524194"},{"website":"http://winnipeg.ca/cms/recreation/facilities/pools/wading_pools/wadingpools.stm","address":"525 Agnes St","lng":"-97.1610151212277","name":"John M King School Wading Pool","lat":"49.893945641086"},{"website":"http://winnipeg.ca/cms/recreation/facilities/pools/wading_pools/wadingpools.stm","address":"334 King Edward St","lng":"-97.2089959700149","name":"King Edward and Ness Playground Wading Pool","lat":"49.8841659854961"},{"website":"http://winnipeg.ca/cms/recreation/facilities/pools/wading_pools/wadingpools.stm","address":"605 Alexander Ave","lng":"-97.1513020425077","name":"Dufferin Park Wading Pool","lat":"49.9069269946724"},{"website":"http://winnipeg.ca/cms/recreation/facilities/pools/wading_pools/wadingpools.stm","address":"340 Amherst St","lng":"-97.2224016360284","name":"Amherst Park Wading Pool","lat":"49.883946918161"},{"website":"http://winnipeg.ca/cms/recreation/facilities/pools/wading_pools/wadingpools.stm","address":"87 Walmer St","lng":"-97.1291197128972","name":"Norwood Community Centre Wading Pool","lat":"49.8791263269614"},{"website":"http://winnipeg.ca/cms/recreation/facilities/pools/wading_pools/wadingpools.stm","address":"1295 Salter St","lng":"-97.1175034618844","name":"Beryl Watts Park Wading Pool","lat":"49.95073295525"},{"website":"http://winnipeg.ca/cms/recreation/facilities/pools/wading_pools/wadingpools.stm","address":"520 Marion St","lng":"-97.1016818437013","name":"Happyland Park Wading Pool","lat":"49.8817378197542"},{"website":"http://winnipeg.ca/cms/recreation/facilities/pools/wading_pools/wadingpools.stm","address":"665 Radford St","lng":"-97.1598121183882","name":"John Yuzyk Park  Wading Pool","lat":"49.9348878781033"},{"website":"http://winnipeg.ca/cms/recreation/facilities/pools/wading_pools/wadingpools.stm","address":"700 Munroe Ave","lng":"-97.0842236485208","name":"Morse Place Community Centre Wading Pool","lat":"49.9127862215059"},{"website":"http://winnipeg.ca/cms/recreation/facilities/pools/wading_pools/wadingpools.stm","address":"595 Louelda St","lng":"-97.0715440320549","name":"Braeside Park Wading Pool","lat":"49.9105690648001"},{"website":"http://winnipeg.ca/cms/recreation/facilities/pools/wading_pools/wadingpools.stm","address":"299 Lock St","lng":"-97.1900098476207","name":"Weston Park Wading Pool","lat":"49.9206987744758"},{"website":"http://winnipeg.ca/cms/recreation/facilities/pools/wading_pools/wadingpools.stm","address":"400 Matheson Ave","lng":"-97.1326573861011","name":"Clara Hughes Park Wading Pool","lat":"49.93196927937"},{"website":"http://winnipeg.ca/cms/recreation/facilities/pools/wading_pools/wadingpools.stm","address":"242 Lizzie St","lng":"-97.1417290346295","name":"Lizzie Park Wading Pool","lat":"49.9037890158497"},{"website":"http://winnipeg.ca/cms/recreation/facilities/pools/wading_pools/wadingpools.stm","address":"233 McKenzie St","lng":"-97.147959134384","name":"Strathcona Recreation Centre Wading Pool","lat":"49.9203091925389"},{"website":"http://winnipeg.ca/cms/recreation/facilities/pools/wading_pools/wadingpools.stm","address":"300 Westwood Dr","lng":"-97.294522965654","name":"John Steel Park Wading Pool","lat":"49.8728119710555"},{"website":"http://winnipeg.ca/cms/recreation/facilities/pools/wading_pools/wadingpools.stm","address":"480 Keenleyside St","lng":"-97.0721553516736","name":"Keenleyside Park Wading Pool","lat":"49.9068346317098"},{"website":"http://winnipeg.ca/cms/recreation/facilities/pools/wading_pools/wadingpools.stm","address":"1315 Strathcona St","lng":"-97.1895996879322","name":"Valour Community Centre - Clifton site Wading Pool","lat":"49.9016492516561"},{"website":"http://winnipeg.ca/cms/recreation/facilities/pools/wading_pools/wadingpools.stm","address":"980 Winakwa Rd","lng":"-97.0750101117224","name":"Winakwa Community Centre Wading Pool","lat":"49.8632575690404"},{"website":"http://winnipeg.ca/cms/recreation/facilities/pools/wading_pools/wadingpools.stm","address":"780 McGee St","lng":"-97.1615120046948","name":"Jacob Penner Park Wading Pool","lat":"49.9015737682867"},{"website":"http://winnipeg.ca/cms/recreation/facilities/pools/wading_pools/wadingpools.stm","address":"1106 Downing St","lng":"-97.1789676632412","name":"Sargent Park Wading Pool","lat":"49.8990990113005"},{"website":"http://winnipeg.ca/cms/recreation/facilities/pools/wading_pools/wadingpools.stm","address":"200 Powers St","lng":"-97.1436152469375","name":"William Whyte School Wading Pool","lat":"49.917703062657"},{"website":"http://winnipeg.ca/cms/recreation/facilities/pools/wading_pools/wadingpools.stm","address":"772 Sargent Ave","lng":"-97.16677897786","name":"Home Playground Wading Pool","lat":"49.8965469955235"},{"website":"http://winnipeg.ca/cms/recreation/facilities/pools/wading_pools/wadingpools.stm","address":"124 Borden Ave","lng":"-97.0009086560423","name":"South Transcona Community Centre Wading Pool","lat":"49.8845370300076"},{"website":"http://winnipeg.ca/cms/recreation/facilities/pools/wading_pools/wadingpools.stm","address":"631 Montrose St","lng":"-97.180199951442","name":"Montrose Park Wading Pool","lat":"49.8591649979416"},{"website":"http://winnipeg.ca/cms/recreation/facilities/pools/wading_pools/wadingpools.stm","address":"575 Larsen Ave","lng":"-97.0981744057471","name":"East End Cultural & Leisure Centre Wading Pool","lat":"49.913241920786"},{"website":"http://winnipeg.ca/cms/recreation/facilities/pools/wading_pools/wadingpools.stm","address":"1415 Burrows Ave","lng":"-97.1785406681302","name":"Northwood Community Centre Wading Pool","lat":"49.9303772271732"},{"website":"http://winnipeg.ca/cms/recreation/facilities/pools/wading_pools/wadingpools.stm","address":"75 Brazier St","lng":"-97.113547746583","name":"Elmwood Winter Club Wading Pool","lat":"49.9094914882537"},{"website":"http://winnipeg.ca/cms/recreation/facilities/pools/wading_pools/wadingpools.stm","address":"960 Arlington St","lng":"-97.1667189686365","name":"Burton Cummings Community Centre Wading Pool","lat":"49.90624597531"},{"website":"http://winnipeg.ca/cms/recreation/facilities/pools/wading_pools/wadingpools.stm","address":"1966 Portage Ave","lng":"-97.2251923359675","name":"Bruce Park Wading Pool","lat":"49.877260186993"},{"website":"http://winnipeg.ca/cms/recreation/facilities/pools/wading_pools/wadingpools.stm","address":"802 Raleigh St","lng":"-97.0817660723711","name":"Centennial Park Wading Pool","lat":"49.9241558046712"},{"website":"http://winnipeg.ca/cms/recreation/facilities/pools/wading_pools/wadingpools.stm","address":"65 Morrow Ave","lng":"-97.0986053921976","name":"Ducharme Park Wading Pool","lat":"49.8538571801646"},{"website":"http://winnipeg.ca/cms/recreation/facilities/pools/wading_pools/wadingpools.stm","address":"210 Rita St","lng":"-97.2584453518482","name":"Sturgeon Heights Community Centre Wading Pool","lat":"49.8763012851608"},{"website":"http://winnipeg.ca/cms/recreation/facilities/pools/wading_pools/wadingpools.stm","address":"720 Henderson Hwy","lng":"-97.1052898368829","name":"Bronx Park Community Centre Wading Pool","lat":"49.927009183197"},{"website":"http://winnipeg.ca/cms/recreation/facilities/pools/wading_pools/wadingpools.stm","address":"1199 Paterson St","lng":"-97.0603650465931","name":"Lomond Park Wading Pool","lat":"49.8591379949519"},{"website":"http://winnipeg.ca/cms/recreation/facilities/pools/wading_pools/wadingpools.stm","address":"1100 College Ave","lng":"-97.1636603524642","name":"Boyd Park Wading Pool","lat":"49.9289190858412"},{"website":"http://winnipeg.ca/cms/recreation/facilities/pools/wading_pools/wadingpools.stm","address":"65 Granville St","lng":"-97.1265874784302","name":"Micha??lle Jean Park (Norquay Community Centre) Wading Pool","lat":"49.9098929974802"},{"website":"http://winnipeg.ca/cms/recreation/facilities/pools/wading_pools/wadingpools.stm","address":"1887 Pacific Ave W","lng":"-97.1996784705046","name":"Eldon Ross Wading Pool","lat":"49.9216988435028"},{"website":"http://winnipeg.ca/cms/recreation/facilities/pools/wading_pools/wadingpools.stm","address":"466 Gertrude Ave","lng":"-97.1432639206347","name":"River Osborne Wading Pool","lat":"49.8745521108964"},{"website":"http://winnipeg.ca/cms/recreation/facilities/pools/wading_pools/wadingpools.stm","address":"372 Cordova St","lng":"-97.1892063825687","name":"Cordova Park Wading Pool","lat":"49.8656758547603"},{"website":"http://winnipeg.ca/cms/recreation/facilities/pools/wading_pools/wadingpools.stm","address":"210 St Cross St","lng":"-97.118745407719","name":"Luxton Community Centre Wading Pool","lat":"49.9248393770967"},{"website":"http://winnipeg.ca/cms/recreation/facilities/pools/wading_pools/wadingpools.stm","address":"295 Pritchard Ave","lng":"-97.1360070489691","name":"Pritchard Park Wading Pool","lat":"49.9142611621393"},{"website":"http://winnipeg.ca/cms/recreation/facilities/pools/wading_pools/wadingpools.stm","address":"448 Burnell St","lng":"-97.170915653738","name":"Valour Community Centre - Orioles site Wading Pool","lat":"49.8912873081562"},{"website":"http://winnipeg.ca/cms/recreation/facilities/pools/wading_pools/wadingpools.stm","address":"1170 Corydon Ave","lng":"-97.1709185497521","name":"Crescentwood Community Centre Wading Pool","lat":"49.8645453060399"},{"website":"http://winnipeg.ca/cms/recreation/facilities/pools/wading_pools/wadingpools.stm","address":"2099 Manitoba Ave","lng":"-97.2119529529176","name":"Walsall Park Wading Pool","lat":"49.9339580007929"},{"website":"http://winnipeg.ca/cms/recreation/facilities/pools/wading_pools/wadingpools.stm","address":"969 Dowker Ave","lng":"-97.1499117432046","name":"Fort Garry Lion\u001as Wading Pool","lat":"49.8409049899278"},{"website":"http://winnipeg.ca/cms/recreation/facilities/pools/wading_pools/wadingpools.stm","address":"1245 Fife St","lng":"-97.1668947210966","name":"Frank Whyte Park Wading Pool","lat":"49.9384457524999"},{"website":"http://winnipeg.ca/cms/recreation/facilities/pools/wading_pools/wadingpools.stm","address":"510 King St","lng":"-97.1360700659165","name":"Turtle Island Recreation Centre Wading Pool","lat":"49.9104492274141"},{"website":"http://winnipeg.ca/cms/recreation/facilities/pools/wading_pools/wadingpools.stm","address":"400 Cumberland Ave","lng":"-97.1492736333863","name":"Central Park Wading Pool","lat":"49.8970159437356"},{"website":"http://winnipeg.ca/cms/recreation/facilities/pools/wading_pools/wadingpools.stm","address":"475 Anderson Ave","lng":"-97.1372117636997","name":"Machray Park Wading Pool","lat":"49.9246254477056"},{"website":"http://winnipeg.ca/cms/recreation/facilities/pools/wading_pools/wadingpools.stm","address":"1 Fowler St","lng":"-97.1264950178523","name":"St. John\u001as Park Wading Pool","lat":"49.9191817822565"},{"website":"http://winnipeg.ca/cms/recreation/facilities/pools/wading_pools/wadingpools.stm","address":"534 Elgin Ave","lng":"-97.1499485402461","name":"Roosevelt Park Wading Pool","lat":"49.9031148286828"},{"website":"http://winnipeg.ca/cms/recreation/facilities/pools/wading_pools/wadingpools.stm","address":"980 Palmerston Ave","lng":"-97.1728226370606","name":"Robert A Steen Memorial Community Centre Wading Pool","lat":"49.877140630946"},{"website":"http://winnipeg.ca/cms/recreation/facilities/pools/wading_pools/wadingpools.stm","address":"2221 King Edward St","lng":"-97.2044930045528","name":"Tyndall Park School Wading Pool","lat":"49.9373049161066"},{"website":"http://winnipeg.ca/cms/recreation/facilities/pools/wading_pools/wadingpools.stm","address":"715 Telfer St N","lng":"-97.1867802825869","name":"Valour Community Centre - Isaac Brock site Wading Pool","lat":"49.8882604338307"},{"website":"http://winnipeg.ca/cms/recreation/facilities/pools/wading_pools/wadingpools.stm","address":"74 Tyndall Ave","lng":"-97.1888054680931","name":"Shaughnessy Park Wading Pool","lat":"49.9347635154927"},{"website":"http://winnipeg.ca/cms/recreation/facilities/pools/wading_pools/wadingpools.stm","address":"790 Rathgar Ave","lng":"-97.1454427477796","name":"McKittrick Park Wading Pool","lat":"49.8570450642152"}],"lastupdate":"2017-Jan-09"}