{"sourcecol":"name,address,website,lat,lng","data":[{"website":"http://winnipeg.ca/cms/recreation/facilities/pools/spraypads.stm","address":"1370 Grosvenor Ave","lng":"-97.1820481939927","name":"River Heights Spray Pad","lat":"49.8661419598955"},{"website":"http://winnipeg.ca/cms/recreation/facilities/pools/spraypads.stm","address":"295 River Ave","lng":"-97.1412633118712","name":"Fort Rouge Park Spray Pad","lat":"49.881718401859"},{"website":"http://winnipeg.ca/cms/recreation/facilities/pools/spraypads.stm","address":"3450 Pembina Hwy","lng":"-97.1552109880996","name":"St. Norbert Community Centre Spray Pad","lat":"49.7677977932526"},{"website":"http://winnipeg.ca/cms/recreation/facilities/pools/spraypads.stm","address":"414 Lindenwood Dr W","lng":"-97.1976019879368","name":"Lindenwoods Spray Pad","lat":"49.8366830494689"},{"website":"http://winnipeg.ca/cms/recreation/facilities/pools/spraypads.stm","address":"620 Langevin St","lng":"-97.1181441526893","name":"Provencher Park Spray Pad","lat":"49.8918318755695"},{"website":"http://winnipeg.ca/cms/recreation/facilities/pools/spraypads.stm","address":"400 Cumberland Ave","lng":"-97.1486622565726","name":"Central Park Spray Pad","lat":"49.8967785977512"},{"website":"http://winnipeg.ca/cms/recreation/facilities/pools/spraypads.stm","address":"1400 Rothesay St","lng":"-97.0757360581198","name":"River East Spray Pad","lat":"49.9432388195398"},{"website":"http://winnipeg.ca/cms/recreation/facilities/pools/spraypads.stm","address":"74 Tyndall Ave","lng":"-97.1889698288029","name":"Shaughnessy Spray Pad","lat":"49.9345762968436"},{"website":"http://winnipeg.ca/cms/recreation/facilities/pools/spraypads.stm","address":"821 Preston Ave","lng":"-97.167686579922","name":"Vimy Ridge Memorial Park Spray Pad","lat":"49.8842720287742"},{"website":"http://winnipeg.ca/cms/recreation/facilities/pools/spraypads.stm","address":"550 Dale Blvd","lng":"-97.3152220667651","name":"Westdale Spray Pad","lat":"49.8612322672348"},{"website":"http://winnipeg.ca/cms/recreation/facilities/pools/spraypads.stm","address":"644 Parkdale St","lng":"-97.2958849997616","name":"St. James Assiniboia Centennial Pool Spray Pad","lat":"49.88395147385"},{"website":"http://winnipeg.ca/cms/recreation/facilities/pools/spraypads.stm","address":"1101 Wabasha St","lng":"-96.9987170465918","name":"Transcona Centennial Spray Pad","lat":"49.9009846958216"}],"lastupdate":"2016-Feb-19"}