{"sourcecol":"name,address,ice_surface_count,website,operated_by,is_open,complexid,lat,lng","data":[{"website":"http://www.winnipeg.ca/cms/recreation/facilities/arenas/Bertrand.stm","address":"294 Bertrand St","lng":"-97.1146040094391","is_open":false,"name":"Bertrand Arena","complexid":"138","operated_by":"City","lat":"49.8835250439414","ice_surface_count":"1"},{"website":"http://www.winnipeg.ca/cms/recreation/facilities/arenas/BillyMosienko.stm","address":"709 Keewatin St","lng":"-97.1944770536811","is_open":false,"name":"Billy Mosienko Arena","complexid":"107","operated_by":"City","lat":"49.9347310188092","ice_surface_count":"1"},{"website":"http://www.winnipeg.ca/cms/recreation/facilities/arenas/Century.stm","address":"1377 Clarence Ave","lng":"-97.1688990321022","is_open":false,"name":"Century Arena","complexid":"178","operated_by":"City","lat":"49.8315109626598","ice_surface_count":"1"},{"website":"http://www.winnipeg.ca/cms/recreation/facilities/arenas/CharlesABarbour.stm","address":"500 Nathaniel St","lng":"-97.1687970393887","is_open":false,"name":"Charles A. Barbour Arena","complexid":"150","operated_by":"City","lat":"49.8553739819506","ice_surface_count":"1"},{"website":"http://www.dakotacc.com/","address":"1188 Dakota St","lng":"-97.1016537877007","is_open":true,"name":"Dakota Community Centre Arena","complexid":"68","operated_by":"GCWCC","lat":"49.8192582067608","ice_surface_count":"2"},{"website":"http://www.eastendarena.ca/","address":"517 Pandora Ave E","lng":"-96.9916019514533","is_open":true,"name":"Ed Golding Memorial Arena","complexid":"106","operated_by":"GCWCC","lat":"49.8946660358942","ice_surface_count":"2"},{"website":"http://www.winnipeg.ca/cms/recreation/facilities/arenas/EricCoy.stm","address":"535 Oakdale Dr","lng":"-97.2701637946963","is_open":false,"name":"Eric Coy Arena","complexid":"146","operated_by":"City","lat":"49.8575844641071","ice_surface_count":"1"},{"website":"http://www.gatewayrec.com/","address":"1717 Gateway Rd","lng":"-97.0476339091185","is_open":true,"name":"Gateway Recreation Centre Arena","complexid":"104","operated_by":"GCWCC","lat":"49.9452319178029","ice_surface_count":"2"},{"website":"http://www.glenwoodcommunitycentre.com/","address":"27 Overton St","lng":"-97.107877018538","is_open":false,"name":"Glenwood Community Centre Arena","complexid":"140","operated_by":"GCWCC","lat":"49.865786958977","ice_surface_count":"1"},{"website":"http://www.kirkfieldwestwoodcc.ca/","address":"165 Sansome Ave","lng":"-97.3031859650849","is_open":false,"name":"Keith Bodley Arena","complexid":"58","operated_by":"GCWCC","lat":"49.8757839017379","ice_surface_count":"1"},{"website":"http://www.sjamha.ca/","address":"80 Allard Ave","lng":"-97.3043433348531","is_open":false,"name":"Kinsmen Allard Arena","complexid":"58","operated_by":"St. James Minor Hockey","lat":"49.8783593246535","ice_surface_count":"1"},{"website":"http://www.winnipeg.ca/cms/recreation/facilities/arenas/Maginot.stm","address":"910 Maginot St","lng":"-97.0802229869884","is_open":false,"name":"Maginot Arena","complexid":"130","operated_by":"City","lat":"49.8726849953324","ice_surface_count":"1"},{"website":"http://www.maplescc.ca/","address":"454 Adsum Dr","lng":"-97.1763679539023","is_open":false,"name":"Maples Multiplex Arena","complexid":"33","operated_by":"GCWCC","lat":"49.9535430026517","ice_surface_count":"1"},{"website":"http://www.ndrc.ca/","address":"271 De La Cathedrale Ave","lng":"-97.1167134649272","is_open":false,"name":"Notre Dame Recreation Centre Arena","complexid":"36","operated_by":"GCWCC","lat":"49.8910714631715","ice_surface_count":"1"},{"website":"http://www.winnipeg.ca/cms/recreation/facilities/arenas/OldExhibition.stm","address":"80 Sinclair St","lng":"-97.1624810185486","is_open":false,"name":"Old Exhibition Arena","complexid":"72","operated_by":"City","lat":"49.9185410363705","ice_surface_count":"1"},{"website":"http://www.winnipeg.ca/cms/recreation/facilities/arenas/Pioneer.stm","address":"799 Logan Ave","lng":"-97.1574790075298","is_open":false,"name":"Pioneer Arena","complexid":"12","operated_by":"City","lat":"49.9101980280304","ice_surface_count":"1"},{"website":"http://www.rkcc.ca/","address":"666 Silverstone Ave","lng":"-97.1366309566203","is_open":false,"name":"Richmond Arena","complexid":"30","operated_by":"GCWCC","lat":"49.7990119661213","ice_surface_count":"1"},{"website":"http://www.winnipeg.ca/cms/recreation/facilities/arenas/RiverEast.stm","address":"1410 Rothesay St","lng":"-97.0770050020946","is_open":false,"name":"River East Arena","complexid":"102","operated_by":"City","lat":"49.9439749951645","ice_surface_count":"1"},{"website":"http://www.corydoncc.com/","address":"1370 Grosvenor Ave","lng":"-97.1816339666988","is_open":false,"name":"River Heights Community Centre Arena","complexid":"31","operated_by":"GCWCC","lat":"49.865400007719","ice_surface_count":"1"},{"website":"http://www.winnipeg.ca/cms/recreation/facilities/arenas/RolandMichener.stm","address":"1121 Wabasha St","lng":"-96.9984923965233","is_open":false,"name":"Roland Michener Arena","complexid":"111","operated_by":"City","lat":"49.9021788907519","ice_surface_count":"1"},{"website":"http://www.winnipeg.ca/cms/recreation/facilities/arenas/SamSouthern.stm","address":"625 Osborne St","lng":"-97.1354998748103","is_open":false,"name":"Sam Southern Arena","complexid":"51","operated_by":"City","lat":"49.8635059926224","ice_surface_count":"1"},{"website":"http://www.winnipeg.ca/cms/recreation/facilities/arenas/SargentPark.stm","address":"1111 Wall St","lng":"-97.1807979547452","is_open":false,"name":"Sargent Park Arena","complexid":"29","operated_by":"City","lat":"49.8993440244204","ice_surface_count":"1"},{"website":"http://www.southdale.ca/","address":"254 Lakewood Blvd","lng":"-97.0778242416008","is_open":false,"name":"Southdale Arena","complexid":"128","operated_by":"GCWCC","lat":"49.8458078138069","ice_surface_count":"2"},{"website":"http://www.winnipeg.ca/cms/recreation/facilities/arenas/StJamesCivicCentre.stm","address":"2055 Ness Ave","lng":"-97.2342531908128","is_open":true,"name":"St. James Civic Centre Arena","complexid":"162","operated_by":"City","lat":"49.886496984794","ice_surface_count":"1"},{"website":"http://www.stnorbertcc.ca/","address":"3450 Pembina Hwy","lng":"-97.1542163743686","is_open":false,"name":"St. Norbert Community Centre Arena","complexid":"155","operated_by":"GCWCC","lat":"49.7681322094247","ice_surface_count":"1"},{"website":"http://www.winnipeg.ca/cms/recreation/facilities/arenas/stvital.stm","address":"580 St Anne's Rd","lng":"-97.092049044835","is_open":false,"name":"St. Vital Centennial Arena","complexid":"125","operated_by":"St. Vital Minor Hockey Association","lat":"49.8331420820683","ice_surface_count":"1"},{"website":"http://www.winnipeg.ca/cms/recreation/facilities/arenas/TerrySawchuk.stm","address":"901 Kimberly Ave","lng":"-97.0708419767021","is_open":false,"name":"Terry Sawchuk Arena","complexid":"98","operated_by":"City","lat":"49.9176480006546","ice_surface_count":"1"},{"website":"http://www.varsityview.org/","address":"4230 Ridgewood Ave","lng":"-97.270796233766","is_open":false,"name":"Varsity View Sportsplex Arena","complexid":"184","operated_by":"GCWCC","lat":"49.843089760955","ice_surface_count":"1"},{"website":"http://www.winnipeg.ca/cms/recreation/facilities/arenas/Vimy.stm","address":"255 Hamilton Ave","lng":"-97.2902431371303","is_open":false,"name":"Vimy Arena","complexid":"168","operated_by":"City","lat":"49.893821399701","ice_surface_count":"1"},{"website":"http://www.wkmcc.webs.com/","address":"346 Perth Ave","lng":"-97.1264527523535","is_open":false,"name":"West Kildonan Memorial Community Centre Arena","complexid":"65","operated_by":"West Kildonan Memorial Community Centre","lat":"49.9372562594939","ice_surface_count":"1"}],"lastupdate":"2016-Feb-19"}